,City,Lat,Lng,Max Temp,Humidity,Cloudiness,Wind Speed,Country,Date
0,Leningradskiy,69.38,178.42,18.23,96,100,12.12,RU,1604362146
1,San Jose,37.34,-121.89,81.0,27,90,6.93,US,1604362072
2,Esperance,-33.87,121.9,59.0,100,75,10.29,AU,1604362147
3,Chokurdakh,70.63,147.92,-13.22,88,74,9.71,RU,1604362147
4,Santa Cruz Cabrália,-16.28,-39.02,68.0,88,90,6.93,BR,1604362147
5,Zandvoort,52.37,4.53,53.01,56,3,3.0,NL,1604362148
6,Shitanjing,39.23,106.34,33.69,70,10,5.12,CN,1604362149
7,Tuatapere,-46.13,167.68,61.0,64,45,1.99,NZ,1604362149
8,New Norfolk,-42.78,147.06,78.01,28,87,1.01,AU,1604362149
9,Los Llanos de Aridane,28.66,-17.92,71.6,64,0,9.17,ES,1604362150
10,Yeniseysk,58.45,92.17,30.02,96,99,8.01,RU,1604362150
11,Vaini,-21.2,-175.2,80.6,78,75,12.75,TO,1604362150
12,Qasigiannguit,68.82,-51.19,19.4,62,42,16.11,GL,1604362151
13,Nikolskoye,59.7,30.79,44.6,81,75,11.18,RU,1604362151
14,Busselton,-33.65,115.33,57.0,95,21,9.64,AU,1604362151
15,Turaif,31.67,38.66,59.0,82,0,5.82,SA,1604362152
16,Severo-Kuril'sk,50.68,156.12,43.48,88,100,27.81,RU,1604362153
17,Tasiilaq,65.61,-37.64,32.0,79,0,5.82,GL,1604362153
18,Ushuaia,-54.8,-68.3,50.0,81,0,13.87,AR,1604361943
19,Hilo,19.73,-155.09,84.2,66,90,5.46,US,1604362154
20,Hobart,-42.88,147.33,77.0,43,0,10.29,AU,1604361923
21,Arraial do Cabo,-22.97,-42.03,68.67,63,5,7.54,BR,1604362155
22,Bengkulu,-3.8,102.27,75.72,87,99,4.63,ID,1604362155
23,Rikitea,-23.12,-134.97,72.25,80,30,17.92,PF,1604362155
24,Lázaro Cárdenas,17.96,-102.2,83.14,75,6,9.93,MX,1604362148
25,Semporna,4.48,118.61,77.0,94,40,6.73,MY,1604362156
26,Ubari,26.59,12.78,59.86,57,3,5.57,LY,1604362157
27,Champerico,14.3,-91.92,87.8,70,40,6.93,GT,1604362157
28,Dolores,-36.31,-57.68,53.44,79,2,7.09,AR,1604361871
29,Saskylakh,71.92,114.08,8.31,94,99,7.67,RU,1604362158
30,Paamiut,61.99,-49.67,32.86,84,100,20.2,GL,1604362158
31,Mount Isa,-20.73,139.5,95.0,14,1,11.41,AU,1604361895
32,Bluff,-46.6,168.33,61.0,64,50,1.99,NZ,1604362159
33,Quatre Cocos,-20.21,57.76,71.6,78,75,8.05,MU,1604362160
34,Surgut,61.25,73.42,24.8,100,75,6.71,RU,1604362160
35,Kapaa,22.08,-159.32,80.6,78,75,10.29,US,1604362160
36,Shetpe,44.17,52.12,54.7,38,75,6.06,KZ,1604362161
37,El Dovio,4.51,-76.24,62.37,97,64,4.72,CO,1604362161
38,Sitka,57.05,-135.33,42.8,70,90,9.17,US,1604362162
39,Jamestown,42.1,-79.24,37.0,64,90,16.11,US,1604362162
40,Hualmay,-11.1,-77.61,61.45,82,95,4.21,PE,1604362163
41,Udarnyy,54.34,42.86,39.63,91,90,5.97,RU,1604362163
42,Newberry,34.27,-81.62,46.99,65,1,2.57,US,1604362164
43,Vao,-22.67,167.48,75.69,89,100,8.34,NC,1604362164
44,Harper,4.38,-7.72,78.1,86,35,4.34,LR,1604362165
45,Ilulissat,69.22,-51.1,19.4,62,61,16.11,GL,1604362165
46,Namatanai,-3.67,152.43,86.07,68,20,2.86,PG,1604362165
47,Samarai,-10.62,150.67,84.04,73,74,6.38,PG,1604362166
48,Lebu,-37.62,-73.65,51.58,89,81,11.36,CL,1604362166
49,Ribeira Grande,38.52,-28.7,62.94,66,62,16.06,PT,1604362167
50,Sunndalsøra,62.68,8.55,46.4,81,100,17.22,NO,1604362167
51,Qaqortoq,60.72,-46.03,28.4,39,98,11.41,GL,1604362168
52,Alofi,-19.06,-169.92,80.6,78,75,21.92,NU,1604362168
53,Cherskiy,68.75,161.3,-4.0,90,100,11.5,RU,1604362168
54,Nauchnyy Gorodok,53.42,83.52,30.2,86,75,6.71,RU,1604362169
55,Saint-Philippe,-21.36,55.77,69.8,60,90,6.93,RE,1604362169
56,Qaanaaq,77.48,-69.36,8.47,78,100,3.96,GL,1604362170
57,Hithadhoo,-0.6,73.08,82.96,72,100,8.75,MV,1604362170
58,Longyearbyen,78.22,15.64,32.0,96,75,55.25,SJ,1604361935
59,Albany,42.6,-73.97,37.0,59,34,5.5,US,1604362110
60,Tabou,4.42,-7.35,78.15,85,11,4.27,CI,1604362171
61,Dikson,73.51,80.55,15.06,94,98,13.18,RU,1604362172
62,Geraldton,-28.77,114.6,62.6,88,40,5.82,AU,1604362172
63,Port Alfred,-33.59,26.89,66.33,86,24,20.11,ZA,1604362173
64,Andilamena,-17.02,48.58,58.73,81,65,6.08,MG,1604362173
65,Comodoro Rivadavia,-45.87,-67.5,66.2,59,0,1.12,AR,1604362066
66,Brae,60.4,-1.35,48.2,70,34,19.46,GB,1604362174
67,Punta Arenas,-53.15,-70.92,53.6,73,75,5.82,CL,1604362175
68,Wilhelmsburg,48.11,15.61,61.0,77,93,4.0,AT,1604362175
69,Hermanus,-34.42,19.23,64.0,86,6,7.0,ZA,1604362176
70,Tuktoyaktuk,69.45,-133.04,5.0,84,20,9.17,CA,1604362176
71,Vestmanna,62.16,-7.17,44.6,70,4,10.29,FO,1604362177
72,Mataura,-46.19,168.86,61.0,64,41,1.99,NZ,1604362177
73,Qom,34.64,50.88,53.33,42,0,2.66,IR,1604362178
74,Touros,-5.2,-35.46,80.6,78,20,14.99,BR,1604362178
75,East London,-33.02,27.91,66.47,85,65,12.82,ZA,1604362179
76,Cape Town,-33.93,18.42,66.0,88,0,10.29,ZA,1604362027
77,Provideniya,64.38,-173.3,30.2,68,90,6.71,RU,1604362179
78,Avarua,-21.21,-159.78,73.4,78,100,11.41,CK,1604361991
79,Yulara,-25.24,130.99,89.6,13,22,9.17,AU,1604362180
80,Kysyl-Syr,63.9,122.76,1.22,89,90,5.84,RU,1604362181
81,Bredasdorp,-34.53,20.04,64.4,88,57,13.87,ZA,1604362181
82,Leeton,-34.57,146.4,75.2,44,77,9.17,AU,1604362181
83,Tautira,-17.73,-149.15,86.0,58,20,23.04,PF,1604362182
84,Arrifes,37.77,-25.7,60.8,67,40,6.93,PT,1604362182
85,Yangjiang,21.85,111.97,68.54,77,46,9.24,CN,1604362182
86,Cardston,49.2,-113.3,66.2,17,80,21.92,CA,1604362183
87,Verāval,20.9,70.37,78.69,41,0,13.76,IN,1604362184
88,Torbay,47.67,-52.73,59.0,100,90,33.33,CA,1604361915
89,Yellowknife,62.46,-114.35,10.99,85,90,10.29,CA,1604362184
90,Nizwá,22.93,57.53,59.95,29,0,2.86,OM,1604362185
91,Najrān,17.49,44.13,59.0,28,0,1.88,SA,1604362185
92,Atuona,-9.8,-139.03,77.92,72,43,18.19,PF,1604362186
93,Okhotsk,59.38,143.3,31.51,95,100,30.11,RU,1604362186
94,Clyde River,70.47,-68.59,15.8,92,90,13.87,CA,1604362187
95,Saint George,37.1,-113.58,73.0,24,1,9.17,US,1604362105
96,Charkhi Dādri,28.6,76.27,63.09,26,0,2.75,IN,1604362188
97,La Ronge,55.1,-105.28,46.4,91,80,5.82,CA,1604362188
98,Chui,-33.7,-53.46,56.64,90,34,6.76,UY,1604362189
99,Quimper,48.0,-4.1,51.8,76,75,11.41,FR,1604362189
100,Kloulklubed,7.04,134.26,84.2,79,75,8.05,PW,1604362189
101,Bagdarin,54.43,113.6,6.82,74,5,1.52,RU,1604362190
102,Lagoa,39.05,-27.98,62.17,62,100,14.65,PT,1604362190
103,Hofn,64.25,-15.21,42.58,62,100,13.47,IS,1604362191
104,Nānākuli,21.39,-158.15,87.01,66,1,12.75,US,1604362191
105,Butaritari,3.07,172.79,81.43,73,42,16.35,KI,1604362191
106,Rebrikha,53.07,82.34,30.61,96,100,5.57,RU,1604362192
107,Chabahar,25.29,60.64,60.8,72,0,2.66,IR,1604362192
108,Bathsheba,13.22,-59.52,82.4,74,40,19.46,BB,1604362193
109,Vinh,18.67,105.67,68.22,83,100,7.09,VN,1604362119
110,Kahului,20.89,-156.47,89.6,52,40,18.34,US,1604362193
111,Norman Wells,65.28,-126.83,10.4,85,90,6.93,CA,1604362194
112,Kangaatsiaq,68.31,-53.46,22.14,88,99,19.8,GL,1604362194
113,Pisco,-13.7,-76.22,64.4,82,90,6.93,PE,1604362195
114,Arman',59.7,150.17,34.0,92,100,17.94,RU,1604362195
115,Mar del Plata,-38.0,-57.56,60.01,93,0,11.41,AR,1604362031
116,Esmeraldas,-19.76,-44.31,71.6,64,40,10.29,BR,1604362196
117,San Policarpo,12.18,125.51,81.07,79,100,4.25,PH,1604362197
118,Tursunzoda,38.51,68.23,41.0,44,0,5.88,TJ,1604362197
119,Lanxi,29.22,119.48,58.8,68,0,4.16,CN,1604362198
120,Manjacaze,-24.71,33.88,66.11,88,13,4.16,MZ,1604362198
121,Steamboat Springs,40.48,-106.83,62.6,19,1,1.77,US,1604362141
122,Sīrjān,29.45,55.68,46.27,53,0,3.02,IR,1604362199
123,Florida,28.75,-82.5,59.0,58,1,5.82,US,1604361935
124,St. George's,12.06,-61.75,80.67,77,64,14.56,GD,1604362200
125,Vicuña,-30.03,-70.71,70.0,32,0,0.69,CL,1604362201
126,Rio Grande,-32.03,-52.1,61.0,91,4,1.01,BR,1604362202
127,Port Hardy,50.7,-127.42,50.0,100,90,21.92,CA,1604362202
128,São Filipe,14.9,-24.5,80.96,58,64,3.83,CV,1604362203
129,Swellendam,-34.02,20.44,64.4,88,3,13.87,ZA,1604362204
130,Roald,62.58,6.13,46.4,81,100,11.41,NO,1604362204
131,Dingle,11.0,122.67,81.55,83,100,7.43,PH,1604362204
132,Kintampo,8.06,-1.73,76.32,68,44,4.88,GH,1604362205
133,Gaillac,43.9,1.9,57.99,98,62,4.03,FR,1604362205
134,Boyolangu,-8.12,111.89,79.79,77,53,2.13,ID,1604362206
135,Paraná,-31.73,-60.52,71.01,49,0,7.72,AR,1604362207
136,Inuvik,68.35,-133.72,-0.4,77,80,3.36,CA,1604361934
137,Puerto Ayora,-0.74,-90.35,70.0,93,92,4.0,EC,1604362019
138,Āsmār,35.03,71.36,57.22,29,0,7.92,AF,1604362208
139,Abu Dhabi,24.47,54.37,75.2,78,0,1.12,AE,1604362202
140,Pochutla,15.74,-96.47,84.2,66,40,17.22,MX,1604362209
141,San Luis,-33.3,-66.34,71.65,28,7,7.58,AR,1604362142
142,Kharan,28.58,65.42,51.42,30,0,3.22,PK,1604362210
143,Horsham,51.06,-0.33,46.99,81,0,4.7,GB,1604362211
144,Kruisfontein,-34.0,24.73,57.99,94,2,6.2,ZA,1604362211
145,Bethel,41.37,-73.41,37.4,44,1,10.29,US,1604362212
146,Stephenville,32.22,-98.2,68.0,32,1,7.45,US,1604362006
147,Bongor,10.28,15.37,78.06,39,36,1.48,TD,1604362212
148,La Crosse,43.8,-91.24,51.8,37,1,6.93,US,1604362175
149,Buala,-8.14,159.59,80.06,82,100,5.21,SB,1604362213
150,Aranda de Duero,41.67,-3.69,55.54,78,94,2.62,ES,1604362214
151,Mīzan Teferī,6.98,35.58,60.87,88,2,2.75,ET,1604362214
152,Ferzikovo,54.52,36.76,42.8,93,87,6.71,RU,1604362215
153,Arlit,18.74,7.39,74.1,21,10,8.37,NE,1604362215
154,Acapulco de Juárez,16.86,-99.89,86.0,79,20,6.93,MX,1604362216
155,Kudahuvadhoo,2.67,72.89,82.22,70,70,8.16,MV,1604362216
156,Vardø,70.37,31.11,43.32,82,100,27.92,NO,1604362216
157,Jinji,23.23,110.83,62.82,61,46,2.68,CN,1604362217
158,Kamenka,51.32,42.77,39.99,91,18,8.52,RU,1604362217
159,Maués,-3.38,-57.72,83.3,62,53,1.88,BR,1604362218
160,Formosa,-26.18,-58.18,77.0,44,0,5.82,AR,1604362037
161,Rafai,4.95,23.92,69.96,95,99,1.23,CF,1604362219
162,Vernon,50.26,-119.27,53.6,65,95,4.7,CA,1604362220
163,Mount Gambier,-37.83,140.77,75.2,47,91,12.75,AU,1604362220
164,Ledyard Center,41.44,-72.01,39.2,38,1,13.87,US,1604362221
165,Barrow,71.29,-156.79,28.4,63,20,16.11,US,1604362221
166,Meulaboh,4.14,96.13,77.07,90,100,4.23,ID,1604362222
167,Gimli,50.63,-96.99,48.2,75,0,9.17,CA,1604362222
168,Toora-Khem,52.47,96.11,24.73,93,100,1.41,RU,1604362223
169,Antalaha,-14.9,50.28,67.98,82,38,5.39,MG,1604362223
170,Oranjemund,-28.55,16.43,61.41,88,60,9.57,NA,1604362224
171,Hambantota,6.12,81.12,78.12,83,100,3.8,LK,1604362224
172,Kieta,-6.22,155.63,86.25,63,67,4.07,PG,1604362225
173,Guerrero Negro,27.98,-114.06,73.0,63,11,16.06,MX,1604362225
174,Marietta,33.95,-84.55,50.0,27,1,6.93,US,1604362065
175,Deputatsky,69.3,139.9,-13.0,82,10,2.64,RU,1604362226
176,Cairns,-16.92,145.77,88.0,55,21,13.87,AU,1604362227
177,Dunedin,-45.87,170.5,57.0,70,96,25.99,NZ,1604362182
178,Brownwood,31.71,-98.99,68.0,30,1,6.42,US,1604361966
179,Kaitangata,-46.28,169.85,59.0,67,45,5.99,NZ,1604362229
180,Nishihara,26.18,127.76,75.2,88,90,19.46,JP,1604362229
181,Road Town,18.42,-64.62,82.4,78,40,11.41,VG,1604362230
182,Fairbanks,64.84,-147.72,-7.6,76,75,2.28,US,1604362230
183,Sawtell,-30.38,153.1,69.8,60,90,17.22,AU,1604362231
184,San Patricio,28.02,-97.52,71.6,49,20,12.75,US,1604362232
185,Bilibino,68.05,166.44,-3.28,90,93,4.52,RU,1604362232
186,Ponta do Sol,32.67,-17.1,69.8,77,40,16.11,PT,1604362232
187,Santa Rosalía,27.32,-112.28,82.6,35,0,2.62,MX,1604362233
188,Marawi,8.0,124.29,79.0,76,100,5.01,PH,1604362233
189,Great Yarmouth,52.61,1.73,46.99,90,4,1.01,GB,1604362234
190,Saldanha,-33.01,17.94,69.8,60,80,4.7,ZA,1604362234
191,Ketchikan,55.34,-131.65,51.8,93,90,12.75,US,1604362005
192,Evensk,61.95,159.23,26.8,97,100,5.41,RU,1604362236
193,Soe,-9.86,124.28,81.57,37,92,4.5,ID,1604362027
194,Stara Zagora,42.43,25.64,55.99,75,100,2.08,BG,1604362237
195,Cabo Rojo,18.09,-67.15,79.0,96,100,1.01,PR,1604362237
196,Ratnagiri,16.98,73.3,77.22,64,0,5.55,IN,1604362238
197,Udimskiy,61.14,45.91,28.17,98,25,8.25,RU,1604362238
198,Yumen,40.28,97.2,34.95,71,0,10.02,CN,1604362239
199,Hasaki,35.73,140.83,57.2,100,75,6.93,JP,1604362239
200,Churapcha,62.0,132.43,-12.93,89,25,5.82,RU,1604362240
201,Sungai Penuh,-2.08,101.38,66.87,89,100,0.78,ID,1604362000
202,Ostrovnoy,68.05,39.51,40.69,79,99,36.39,RU,1604362241
203,Flin Flon,54.77,-101.86,35.6,93,40,4.7,CA,1604362242
204,Maumere,-8.62,122.21,84.13,67,99,2.53,ID,1604362242
205,Upernavik,72.79,-56.15,15.94,92,96,7.7,GL,1604362243
206,Tsiroanomandidy,-18.77,46.03,72.93,58,65,3.02,MG,1604362243
207,Aklavik,68.22,-135.01,-0.4,77,99,3.36,CA,1604362243
208,Mabaruma,8.2,-59.78,69.78,99,98,1.68,GY,1604362244
209,Nome,64.5,-165.41,23.0,85,90,3.58,US,1604362244
210,Karcag,47.32,20.93,52.0,100,90,5.12,HU,1604362245
211,Tucumã,-0.18,-50.05,80.87,77,66,8.25,BR,1604362245
212,Castro,-24.79,-50.01,53.64,87,14,9.51,BR,1604362246
213,Rincon,32.3,-81.24,55.4,46,1,3.36,US,1604362246
214,Srednekolymsk,67.45,153.68,-7.65,87,0,8.39,RU,1604362246
215,Laas,46.62,10.7,42.8,93,5,1.12,IT,1604362247
216,Thompson,55.74,-97.86,21.2,92,90,4.7,CA,1604362118
217,Boguchany,58.38,97.45,22.08,96,43,5.68,RU,1604362248
218,Lodja,-3.48,23.43,68.11,98,99,1.43,CD,1604362248
219,Atasū,48.68,71.64,28.87,95,0,3.29,KZ,1604362249
220,Puerto Madero,14.72,-92.42,86.0,74,40,5.82,MX,1604362249
221,Manado,1.49,124.85,77.0,88,40,1.12,ID,1604362250
222,Batagay-Alyta,67.8,130.41,-5.4,84,96,2.62,RU,1604362251
223,Saint Paul Harbor,57.79,-152.41,30.2,42,1,14.99,US,1604362251
224,Alice Springs,-23.7,133.88,89.6,11,0,11.41,AU,1604362050
225,Semenivka,52.18,32.58,42.57,96,70,5.75,UA,1604362252
226,Waverly,42.74,-84.62,44.6,42,1,20.8,US,1604362252
227,Sambava,-14.27,50.17,68.97,81,20,7.94,MG,1604362253
228,Consett,54.85,-1.83,43.0,89,99,1.99,GB,1604362253
229,Luanda,-8.84,13.23,78.8,83,75,6.93,AO,1604362254
230,Praia da Vitória,38.73,-27.07,62.6,59,75,13.49,PT,1604362254
231,Seymchan,62.88,152.43,7.25,92,100,7.96,RU,1604362255
232,George Town,5.41,100.34,78.8,94,20,3.36,MY,1604362255
233,Isangel,-19.55,169.27,80.6,78,75,5.82,VU,1604362255
234,Henties Bay,-22.12,14.28,57.99,90,71,1.99,NA,1604362256
235,Kindu,-2.95,25.95,68.54,93,82,1.3,CD,1604362256
236,Tamandaré,-8.76,-35.1,77.74,80,0,10.51,BR,1604362257
237,Mandalgovi,45.76,106.27,23.18,78,0,7.99,MN,1604362257
238,Khatanga,71.97,102.5,10.49,96,100,6.49,RU,1604362257
239,Rock Springs,41.59,-109.2,62.6,13,1,5.82,US,1604362118
240,Belmonte,-15.86,-38.88,68.0,88,90,6.93,BR,1604362258
241,San Vicente,-26.62,-54.13,62.89,60,82,2.51,AR,1604362258
242,Angoche,-16.23,39.91,78.4,80,25,5.7,MZ,1604362259
243,Vestmannaeyjar,63.44,-20.27,43.5,72,99,30.56,IS,1604362259
244,Tessalit,20.2,1.01,72.05,21,100,11.79,ML,1604362260
245,Tilichiki,60.47,166.1,32.16,98,100,2.93,RU,1604362260
246,Carnarvon,-24.87,113.63,66.2,72,23,16.11,AU,1604362260
247,Oussouye,12.48,-16.55,78.8,88,0,2.24,SN,1604362261
248,Buraidah,26.33,43.98,62.6,45,0,2.24,SA,1604362262
249,Maturin,9.75,-63.18,71.04,97,100,3.4,VE,1604362262
250,Nantucket,41.28,-70.1,39.2,48,1,21.92,US,1604362263
251,Bitung,1.45,125.18,77.0,88,40,1.12,ID,1604362085
252,Souillac,-20.52,57.52,71.6,73,75,10.29,MU,1604362263
253,Puri,19.8,85.85,77.0,88,54,3.36,IN,1604362264
254,Ulaangom,49.98,92.07,23.41,95,88,2.64,MN,1604362264
255,Mahébourg,-20.41,57.7,71.6,73,75,10.29,MU,1604362265
256,Lom Sak,16.78,101.24,75.2,94,75,2.24,TH,1604362265
257,Yueyang,29.33,113.09,57.16,66,86,7.65,CN,1604362266
258,Barcelos,41.54,-8.62,53.6,81,0,8.05,PT,1604362107
259,Necochea,-38.55,-58.74,64.0,59,6,8.99,AR,1604362267
260,Latung,5.5,120.88,82.89,79,100,11.92,PH,1604362267
261,Black River,18.03,-77.85,78.8,88,20,11.41,JM,1604362267
262,Bandarbeyla,9.49,50.81,77.41,80,50,18.52,SO,1604362268
263,Tiksi,71.69,128.87,4.05,90,100,3.96,RU,1604362268
264,Lüderitz,-26.65,15.16,60.04,86,64,4.83,NA,1604362269
265,Pevek,69.7,170.31,11.28,89,44,25.26,RU,1604362269
266,Ekhabi,53.51,142.97,34.34,85,13,7.85,RU,1604362270
267,Phulpur,25.55,82.1,65.64,27,0,4.59,IN,1604362270
268,Havelock,34.88,-76.9,46.4,60,1,6.93,US,1604362271
269,Amapá,1.0,-52.0,74.28,90,48,4.5,BR,1604362271
270,Santa Isabel Rio Negro,-0.41,-65.02,80.08,71,44,0.98,BR,1604362272
271,Pangody,65.85,74.49,15.93,95,42,9.78,RU,1604362272
272,Mariinsk,56.21,87.75,30.11,96,100,5.59,RU,1604362273
273,Ponta Delgada,37.73,-25.67,60.8,67,40,6.93,PT,1604362273
274,Etchoropo,26.77,-109.67,91.99,24,18,5.99,MX,1604362274
275,Popondetta,-8.75,148.25,92.17,50,87,3.58,PG,1604362274
276,Kavaratti,10.57,72.64,81.93,69,0,4.05,IN,1604362275
277,Muskegon,43.3,-86.13,48.2,63,40,16.11,US,1604362210
278,Zhuhai,22.28,113.57,71.6,73,20,17.22,CN,1604362275
279,Madang,-5.22,145.8,88.63,59,58,0.96,PG,1604362276
280,Luyang,27.62,110.1,56.19,83,100,2.17,CN,1604362276
281,Itarema,-2.92,-39.92,80.15,81,0,13.11,BR,1604362277
282,Coyhaique,-45.58,-72.07,60.8,48,0,4.7,CL,1604362277
283,Khovd,48.01,91.64,26.44,77,20,2.62,MN,1604362278
284,Rabak,13.18,32.74,84.9,25,72,8.68,SD,1604362278
285,Port Elizabeth,-33.92,25.57,64.4,88,0,13.87,ZA,1604362279
286,Lompoc,34.64,-120.46,70.0,64,1,4.7,US,1604362280
287,Saint-Augustin,51.23,-58.65,49.59,88,100,27.51,CA,1604362280
288,Ixtapa,20.7,-105.2,86.0,70,5,10.29,MX,1604362281
289,Chicama,-7.84,-79.15,62.64,79,80,4.59,PE,1604362281
290,Salto,-31.38,-57.97,62.78,68,8,9.15,UY,1604362162
291,Vaitape,-16.52,-151.75,80.55,79,5,16.98,PF,1604362282
292,Tarakan,3.3,117.63,80.65,79,100,9.95,ID,1604362282
293,Coquimbo,-29.95,-71.34,55.4,82,75,5.82,CL,1604362283
294,Waddān,29.16,16.14,59.41,71,0,6.85,LY,1604362283
295,Talnakh,69.49,88.4,10.4,92,40,5.93,RU,1604362284
296,Klaksvík,62.23,-6.59,44.6,70,0,10.29,FO,1604362284
297,Malé,4.17,73.51,82.4,83,40,4.7,MV,1604362285
298,Druzhba,52.04,33.95,45.45,92,97,6.55,UA,1604362285
299,Bamiantong,44.93,130.53,25.12,82,95,15.37,CN,1604362286
300,Rock Sound,24.9,-76.2,79.36,81,41,31.16,BS,1604362286
301,Treinta y Tres,-33.23,-54.38,54.61,91,29,8.61,UY,1604362286
302,Oistins,13.07,-59.53,82.4,74,40,19.46,BB,1604362287
303,Narsaq,60.92,-46.05,26.6,49,92,4.7,GL,1604362287
304,Jönköping,57.78,14.16,48.2,93,75,17.22,SE,1604362288
305,Forest Grove,45.52,-123.11,64.4,48,1,1.54,US,1604362288
306,Villanueva,15.32,-88.0,73.4,100,90,8.05,HN,1604362289
307,Miraflores,19.22,-98.81,59.0,38,5,16.11,MX,1604362289
308,Alta Floresta,-9.88,-56.09,71.62,93,94,0.89,BR,1604362289
309,Kaseda-shirakame,31.42,130.32,55.4,71,20,5.82,JP,1604362290
310,Kiryat Gat,31.61,34.76,68.0,75,2,2.01,IL,1604362290
311,Bhatkal,13.97,74.57,77.94,66,4,3.11,IN,1604362291
312,Soyo,-6.13,12.37,78.08,87,53,8.97,AO,1604362291
313,Ambon City,-3.7,128.18,84.99,89,99,7.0,ID,1604362292
314,Morondava,-20.28,44.28,75.87,76,0,4.9,MG,1604362292
315,Sochi,43.6,39.73,51.8,81,22,4.47,RU,1604362292
316,Baykit,61.67,96.37,20.43,94,92,6.04,RU,1604362293
317,Mortsel,51.17,4.45,52.0,76,0,10.29,BE,1604362293
318,Kavieng,-2.57,150.8,85.8,66,2,2.19,PG,1604362294
319,Hong Kong,22.29,114.16,72.0,70,56,1.01,HK,1604362080
320,Bambous Virieux,-20.34,57.76,71.6,73,75,10.29,MU,1604362295
321,Bodden Town,19.28,-81.25,84.2,74,20,18.34,KY,1604362295
322,Liusha,27.21,108.59,50.47,85,100,1.97,CN,1604362295
323,Sompeta,18.93,84.6,77.58,78,84,5.79,IN,1604362296
324,Ibrā’,22.69,58.53,59.11,36,0,3.96,OM,1604362297
325,Mbala,-8.84,31.37,64.33,73,80,6.51,ZM,1604362297
326,Sobolevo,54.43,31.9,41.74,94,86,4.68,RU,1604362297
327,Iqaluit,63.75,-68.51,17.6,72,75,25.28,CA,1604362298
328,Esqueda,30.72,-109.58,73.83,24,46,8.03,MX,1604362298
329,Yantal',56.85,105.25,26.04,95,100,9.46,RU,1604362298
330,Saint-Louis,16.33,-15.0,88.27,13,100,7.87,SN,1604362299
331,Bereda,43.27,-7.54,46.0,100,63,8.99,ES,1604362299
332,Ust-Kuyga,70.02,135.6,-12.01,84,98,8.05,RU,1604362300
333,Vila,42.03,-8.16,46.99,94,76,1.99,PT,1604362300
334,Newtownards,54.59,-5.69,41.0,86,100,10.29,GB,1604362285
335,Broken Hill,-31.95,141.43,82.4,20,0,14.99,AU,1604362301
336,Nioki,-2.72,17.68,70.86,92,98,1.57,CD,1604362301
337,Krasnosel'kup,65.7,82.47,19.17,97,96,11.7,RU,1604362302
338,Nuuk,64.18,-51.72,24.8,58,94,18.34,GL,1604362302
339,Anadyr,64.75,177.48,17.6,92,75,4.47,RU,1604362303
340,Ambilobe,-13.2,49.05,69.03,75,41,5.08,MG,1604362304
341,Rancho Palos Verdes,33.74,-118.39,70.0,77,5,11.41,US,1604362121
342,Laguna,38.42,-121.42,82.99,18,1,3.11,US,1604362305
343,Nuevo Progreso,23.17,-97.95,73.0,51,53,4.0,MX,1604362305
344,Carauari,-4.88,-66.9,75.83,92,89,2.8,BR,1604362306
345,Grindavik,63.84,-22.43,41.0,86,75,25.28,IS,1604362306
346,Khyriv,49.53,22.85,48.99,88,100,13.0,UA,1604362307
347,Igarka,67.47,86.58,12.96,96,98,9.48,RU,1604362307
348,Wanning,18.8,110.4,73.53,83,64,14.85,CN,1604362308
349,Belaya Gora,68.53,146.42,-11.54,81,0,7.87,RU,1604362308
350,Molochnoye,59.29,39.68,36.37,96,100,7.96,RU,1604362309
351,Srbobran,45.55,19.8,54.64,80,100,3.78,RS,1604362309
352,Faanui,-16.48,-151.75,79.7,80,6,17.09,PF,1604362310
353,Lorengau,-2.02,147.27,86.58,63,2,1.72,PG,1604362310
354,Collie,-33.37,116.15,57.74,82,38,5.75,AU,1604362310
355,Lauria,40.05,15.84,53.51,84,62,0.87,IT,1604362311
356,Gandu,-13.74,-39.49,68.49,96,100,2.44,BR,1604362311
357,Östersund,63.18,14.64,44.01,81,39,12.75,SE,1604362312
358,Vershino-Shakhtaminskiy,51.3,117.89,4.91,84,0,3.47,RU,1604362312
359,Ilesha,7.14,5.26,72.12,91,100,1.81,NG,1604362313
360,Usinsk,65.99,57.53,30.16,97,95,19.95,RU,1604362313
361,Charters Towers,-20.1,146.27,83.93,44,8,16.75,AU,1604362314
362,Borogontsy,62.67,131.17,-11.52,90,61,4.47,RU,1604362314
363,Eirunepé,-6.66,-69.87,74.82,91,78,1.63,BR,1604362042
364,Dawlatabad,36.41,64.91,50.83,42,0,1.99,AF,1604362315
365,Olafsvik,64.89,-23.71,39.38,81,97,18.16,IS,1604362316
366,Faya,18.39,42.45,57.2,64,0,1.05,SA,1604362316
367,Victor Harbor,-35.57,138.62,87.01,36,51,3.0,AU,1604362317
368,Houma,29.6,-90.72,62.6,36,1,8.05,US,1604362317
369,Kautokeino,69.01,23.04,38.7,88,100,19.86,NO,1604362318
370,San Lazaro,18.04,-88.66,77.0,94,90,14.99,BZ,1604362318
371,Padang,-0.95,100.35,78.55,74,100,3.09,ID,1604362319
372,Kumul,42.8,93.45,34.34,82,0,2.48,CN,1604362319
373,Nanortalik,60.14,-45.24,32.4,84,87,6.82,GL,1604362320
374,Kailua,21.4,-157.74,84.2,62,40,10.29,US,1604362320
375,Zhoucheng,35.91,116.31,48.99,1,0,3.11,CN,1604362321
376,Butajīra,8.12,38.37,54.52,54,3,8.01,ET,1604362321
377,Scottsbluff,41.87,-103.67,73.4,23,1,7.25,US,1604362230
378,Subiaco,41.93,13.09,52.0,86,49,1.59,IT,1604362322
379,Milledgeville,33.08,-83.23,53.6,66,1,1.63,US,1604362209
380,Bongandanga,1.5,21.05,70.36,97,100,1.21,CD,1604362324
381,Corinth,37.94,22.96,57.99,67,85,1.01,GR,1604362324
382,Ząbkowice Śląskie,50.59,16.81,60.01,75,95,5.01,PL,1604362321
383,Husavik,66.04,-17.34,37.4,93,90,16.11,IS,1604362325
384,Caravelas,-17.71,-39.25,72.46,74,97,12.46,BR,1604362325
385,Abong Mbang,3.98,13.18,67.89,97,92,0.4,CM,1604362326
386,Codrington,-38.27,141.97,74.19,66,83,16.2,AU,1604362316
387,Pryazha,61.69,33.62,42.8,87,100,13.42,RU,1604362327
388,Mbanza-Ngungu,-5.25,14.87,69.98,94,100,2.28,CD,1604362327
389,Diu,20.71,70.98,76.86,45,0,11.25,IN,1604362328
390,Conceição do Araguaia,-8.26,-49.26,75.81,81,79,1.28,BR,1604362297
391,Labuhan,-6.88,112.21,80.47,79,99,7.34,ID,1604362329
392,Adrar,20.5,-10.07,80.22,17,100,9.71,MR,1604362329
393,Lavrentiya,65.58,-171.0,21.18,86,0,2.01,RU,1604362330
394,Menongue,-14.66,17.69,66.65,77,60,5.75,AO,1604362330
395,Tsumeb,-19.23,17.72,75.52,41,47,5.93,NA,1604362331
396,Omsukchan,62.53,155.8,13.19,93,100,5.28,RU,1604362331
397,Rawson,-43.3,-65.1,75.38,29,100,19.62,AR,1604362144
398,Flinders,-34.58,150.86,69.01,70,14,3.0,AU,1604362332
399,Broome,42.25,-75.83,34.0,92,90,8.05,US,1604362333
400,Tokur,53.13,132.9,12.81,92,100,5.1,RU,1604362326
401,Maltahöhe,-24.83,16.98,57.33,75,0,2.68,NA,1604362334
402,Mujiayingzi,42.12,118.78,22.37,71,0,7.52,CN,1604362334
403,Kuala Terengganu,5.33,103.14,78.8,94,40,2.24,MY,1604362315
404,Yar-Sale,66.83,70.83,16.86,96,70,8.86,RU,1604362335
405,Iquitos,-3.75,-73.25,86.0,66,20,2.24,PE,1604362336
406,Polyarnyye Zori,67.37,32.5,38.62,94,100,12.68,RU,1604362336
407,Seydi,39.48,62.91,50.23,38,0,9.55,TM,1604362337
408,Fortuna,40.6,-124.16,48.2,93,90,14.99,US,1604362337
409,Trairi,-3.28,-39.27,80.1,78,11,10.71,BR,1604362338
410,Cabo San Lucas,22.89,-109.91,84.99,58,20,5.82,MX,1604362338
411,Franklin,39.97,-83.02,44.6,28,20,10.29,US,1604362338
412,Tateyama,34.98,139.87,62.6,93,75,3.36,JP,1604362339
413,Muroto-misakicho,33.28,134.15,60.8,59,20,12.75,JP,1604362340
414,Oranjestad,12.52,-70.03,84.2,79,20,9.17,AW,1604362340
415,Port Augusta,-32.5,137.77,86.0,25,11,18.34,AU,1604362340
416,Aragats,40.49,44.35,48.2,81,20,2.89,AM,1604362341
417,Pio IX,-6.84,-40.58,71.92,86,99,5.95,BR,1604362341
418,Cidreira,-30.18,-50.21,62.29,77,0,7.83,BR,1604362341
419,Tombouctou,20.0,-3.0,83.93,16,100,7.02,ML,1604362342
420,Tereze,43.94,42.44,51.8,87,75,4.47,RU,1604362342
421,Jambi City,-1.6,103.62,73.06,98,100,0.83,ID,1604362343
422,Zeya,53.75,127.27,16.36,81,95,6.69,RU,1604362343
423,Asău,46.43,26.4,48.0,88,100,4.36,RO,1604362344
424,Casino,-28.87,153.05,73.4,43,14,10.29,AU,1604362344
425,Rocha,-34.48,-54.33,53.13,92,13,5.12,UY,1604362345
426,Lerwick,60.15,-1.15,48.2,70,36,19.46,GB,1604362345
427,Egvekinot,66.32,-179.17,13.51,92,96,1.88,RU,1604362346
428,Quesnel,53.0,-122.5,55.4,60,90,6.93,CA,1604362346
429,Tuy Hoa,13.08,109.3,74.71,86,98,6.87,VN,1604362048
430,Saurimo,-9.66,20.39,64.71,96,50,4.38,AO,1604362347
431,Ust-Maya,60.42,134.53,-5.58,87,10,9.78,RU,1604362348
432,Jumla,29.27,82.18,42.8,61,0,6.4,NP,1604362348
433,Portland,45.52,-122.68,66.2,39,40,4.7,US,1604362247
434,Mount Vernon,40.91,-73.84,44.6,30,20,18.34,US,1604362349
435,El Sauce,12.89,-86.54,71.6,100,90,1.36,NI,1604362350
436,Port-Cartier,50.03,-66.87,28.4,74,100,18.34,CA,1604362350
437,Rafaela,-31.25,-61.49,69.01,45,2,4.0,AR,1604362351
438,Izhma,65.01,53.91,29.95,90,28,10.33,RU,1604362352
439,Sechura,-5.56,-80.82,66.31,71,18,15.1,PE,1604362352
440,Uvinza,-5.1,30.39,73.58,60,92,2.51,TZ,1604362353
441,Charlottesville,38.03,-78.48,48.2,21,1,3.36,US,1604362278
442,Ilmajoki,62.73,22.57,54.0,93,75,9.17,FI,1604362354
443,Manaure,11.78,-72.44,82.69,78,100,9.75,CO,1604362354
444,Alice,27.75,-98.07,75.2,36,1,4.7,US,1604362354
445,Beruwala,6.48,79.98,76.91,87,54,4.0,LK,1604362355
446,Constitución,-35.33,-72.42,52.93,90,49,12.88,CL,1604362355
447,Katsuura,35.13,140.3,61.0,94,100,1.16,JP,1604362147
448,Hamilton,39.18,-84.53,44.01,35,1,10.29,US,1604362116
449,Tiznit Province,29.58,-9.5,66.94,35,0,2.28,MA,1604362357
450,Moussoro,13.64,16.49,83.71,22,72,16.98,TD,1604362357
451,Zonguldak,41.25,31.83,45.32,80,33,3.15,TR,1604362358
452,Moose Factory,51.26,-80.61,26.6,92,90,17.22,CA,1604362359
453,Frankfort,-27.27,28.48,56.23,76,5,2.93,ZA,1604362359
454,Eyl,7.98,49.82,79.74,72,10,16.73,SO,1604362360
455,Lalian,31.82,72.8,60.78,31,0,0.4,PK,1604362360
456,Honiara,-9.43,159.95,75.2,100,75,6.93,SB,1604362361
457,Havre-St-Pierre,50.23,-63.6,39.2,93,90,9.17,CA,1604362361
458,São João da Barra,-21.64,-41.05,68.76,67,83,11.41,BR,1604362362
459,Mackay,-21.15,149.2,84.2,58,40,20.8,AU,1604362089
460,Kitui,-1.37,38.01,65.14,89,65,5.82,KE,1604362362
461,Te Anau,-45.42,167.72,64.98,43,62,1.59,NZ,1604362363
462,Whitianga,-36.83,175.7,67.05,75,100,10.54,NZ,1604362363
463,Juegang,32.32,121.19,57.99,99,2,1.01,CN,1604362364
464,Herveo,5.08,-75.17,55.63,91,71,4.52,CO,1604362364
465,Gberia Fotombu,9.88,-11.17,71.85,74,8,2.66,SL,1604362364
466,Akle,15.05,121.07,82.0,94,75,2.24,PH,1604362365
467,Moratuwa,6.77,79.88,78.8,88,30,2.24,LK,1604362365
468,Sarh,9.14,18.39,77.0,88,0,2.57,TD,1604362366
469,Sabang,5.89,95.32,81.36,78,47,4.05,ID,1604362367
470,Kolosovka,56.47,73.61,28.9,97,99,6.71,RU,1604362367
471,Cauquenes,-35.97,-72.32,56.37,79,5,6.87,CL,1604362072
472,Spring Valley,36.11,-115.25,86.0,10,75,1.28,US,1604362317
473,Kendari,-3.94,122.5,78.35,83,90,2.57,ID,1604362368
474,Kilingi-Nõmme,58.15,24.96,49.91,90,100,14.34,EE,1604362368
475,Inverness,57.48,-4.22,41.0,93,100,8.05,GB,1604362369
476,Santiago,-33.46,-70.65,72.0,46,0,12.75,CL,1604362280
477,Jining,35.41,116.58,48.99,1,34,4.47,CN,1604362370
478,Pingliang,35.54,106.69,42.13,61,96,3.98,CN,1604362371
479,Cap Malheureux,-19.98,57.61,66.0,75,30,1.99,MU,1604362371
480,Ust-Tsilma,65.44,52.15,30.33,89,13,7.7,RU,1604362372
481,San Cristobal,7.77,-72.22,68.25,92,94,2.39,VE,1604362345
482,Kashgar,39.45,75.98,41.0,41,0,11.18,CN,1604362373
483,Champawat,29.33,80.1,47.82,98,0,4.83,IN,1604362373
484,Lakatoro,-16.1,167.42,82.4,74,75,4.7,VU,1604362374
485,North Myrtle Beach,33.82,-78.68,48.2,49,1,4.7,US,1604362374
486,Zhigansk,66.77,123.37,0.28,90,100,19.66,RU,1604362374
487,Arrondissement de Carpentras,44.08,5.17,57.2,93,90,1.12,FR,1604362375
488,Arrondissement de Bastia,42.67,9.33,62.01,82,75,3.36,FR,1604362266
489,Raudeberg,61.99,5.14,45.0,92,99,20.24,NO,1604362375
490,Kologriv,58.83,44.32,30.78,97,13,6.6,RU,1604362376
491,Naryan-Mar,67.67,53.09,29.93,93,100,13.18,RU,1604362376
492,Skellefteå,64.75,20.95,48.0,93,0,5.82,SE,1604362377
493,Palāsbāri,26.14,91.55,77.0,100,40,2.04,IN,1604362377
494,Russell,32.35,-85.2,59.0,61,1,4.7,US,1604362378
495,Samoded,63.61,40.51,38.79,85,89,12.48,RU,1604362378
496,Palmer,42.16,-72.33,35.6,47,20,16.11,US,1604362378
497,Kizhinga,51.85,109.91,14.11,88,41,1.88,RU,1604362379
498,Novy Urengoy,66.08,76.63,18.37,97,99,12.62,RU,1604362380
499,Melo,-32.37,-54.18,54.9,90,30,8.61,UY,1604362380
500,Airai,-8.93,125.41,75.09,43,61,3.94,TL,1604362381
501,Krasnogorsk,55.82,37.32,43.0,93,90,8.95,RU,1604362381
502,Adelaide,-34.93,138.6,87.8,16,0,23.04,AU,1604362196
503,Kuching,1.55,110.33,75.2,94,20,2.24,MY,1604362382
504,Ahipara,-35.17,173.17,69.15,71,100,11.95,NZ,1604362383
505,Nichinan,31.6,131.37,60.8,72,40,11.41,JP,1604362383
506,Domoni,-12.26,44.53,75.42,82,21,6.11,KM,1604362384
507,Caceres,39.52,-6.37,60.01,95,100,2.53,ES,1604362384
508,Newport,51.59,-3.0,46.99,89,3,10.94,GB,1604362384
509,Inhambane,-23.86,35.38,71.46,78,14,4.21,MZ,1604362385
510,Beaverlodge,55.22,-119.44,59.0,41,75,20.8,CA,1604362386
511,Muravlenko,63.79,74.52,12.4,96,10,11.21,RU,1604362386
512,Helong,42.54,129.0,26.46,76,1,14.0,CN,1604362387
513,Gelemso,8.82,40.52,55.17,52,5,1.9,ET,1604362387
514,Mangai,-4.05,19.53,70.57,98,100,0.58,CD,1604362388
515,Gamba,-2.65,10.0,75.06,92,29,2.64,GA,1604362388
516,Mulchén,-37.72,-72.23,64.51,68,31,4.88,CL,1604362389
517,Handiā,25.38,82.18,68.0,82,20,4.7,IN,1604362389
518,Noril'sk,69.35,88.2,10.4,92,40,4.74,RU,1604362389
519,Cam Ranh,11.92,109.16,78.8,78,75,4.7,VN,1604362281
520,Imeni Babushkina,59.76,43.13,33.82,94,73,7.63,RU,1604362390
521,Phalaborwa,-23.94,31.14,68.0,82,19,6.93,ZA,1604362390
522,Lexington,37.99,-84.48,41.0,41,1,4.7,US,1604362391
523,Oktyabr'skiy,54.48,53.47,33.15,94,43,3.49,RU,1604362392
524,Gravdal,68.12,13.5,47.62,79,100,25.55,NO,1604362392
525,Vila Franca do Campo,37.72,-25.43,60.8,67,40,6.93,PT,1604362393
526,Thunder Bay,48.4,-89.32,44.6,52,20,9.17,CA,1604362393
527,Yavas,54.42,42.85,39.96,90,93,6.15,RU,1604362393
528,Hyderabad,17.38,78.47,73.0,94,0,4.7,IN,1604362191
529,São Félix do Xingu,-6.64,-51.99,74.28,91,94,1.21,BR,1604362394
530,Guarapari,-20.67,-40.5,70.0,68,20,8.05,BR,1604362395
531,Campos Belos,-13.04,-46.77,70.54,92,56,1.01,BR,1604362395
532,Mirador,-6.37,-44.36,75.0,89,99,4.92,BR,1604362396
533,Toledo,39.83,-4.0,63.0,69,63,5.1,ES,1604362230
534,Kostomuksha,64.57,30.58,45.86,84,100,23.09,RU,1604362397
535,Kyra,49.58,111.98,12.15,79,0,3.13,RU,1604362397
536,Ténenkou,14.46,-4.92,79.97,17,42,8.37,ML,1604362398
537,Sioux Lookout,50.1,-91.92,39.2,69,75,3.36,CA,1604362398
538,Yangi Marg`ilon,40.43,71.72,42.8,41,0,4.7,UZ,1604362399
539,San Rafael,-34.62,-68.33,78.69,17,39,12.84,AR,1604362399
540,Muros,42.78,-9.06,46.99,95,26,1.01,ES,1604362399
541,Chapais,49.78,-74.85,17.6,92,90,5.82,CA,1604362400
542,Nyurba,63.28,118.33,8.35,85,100,7.96,RU,1604362400
543,Tura,25.52,90.22,69.39,93,82,1.28,IN,1604362401
544,Starodzhereliyevskaya,45.48,38.3,53.01,87,100,1.01,RU,1604362402
545,Pa Daet,19.5,99.99,73.99,100,40,0.45,TH,1604362403
546,Atar,20.52,-13.05,81.09,18,94,10.69,MR,1604362403
547,Dneprovskaya,45.62,38.81,53.01,100,93,9.17,RU,1604362404
548,Sørland,67.67,12.69,46.53,87,100,25.39,NO,1604362404
549,Yafran,32.06,12.53,57.97,55,0,5.35,LY,1604362405
550,Baghdad,33.34,44.4,77.0,33,75,11.41,IQ,1604362405
551,Ipiaú,-14.14,-39.73,68.29,96,100,2.1,BR,1604362406
552,Iquique,-20.22,-70.14,62.6,72,40,14.99,CL,1604362318
553,Hede,33.77,120.25,54.46,42,0,11.23,CN,1604362406
554,San Fernando del Valle de Catamarca,-28.47,-65.79,62.01,52,3,9.19,AR,1604362142
555,Saint-Gabriel,46.3,-73.38,33.8,47,46,20.8,CA,1604362407
556,Punta Alta,-38.88,-62.07,70.3,48,0,14.65,AR,1604362406
557,Ashti,19.38,76.23,67.06,66,0,1.59,IN,1604362408
558,Bilma,18.69,12.92,71.1,23,2,9.17,NE,1604362409
559,Wuning,29.26,120.23,57.25,69,0,6.73,CN,1604362409
560,Pulaski,34.77,-92.3,55.4,37,1,5.82,US,1604362410
561,Manakara,-22.13,48.02,67.05,82,20,3.4,MG,1604362410
562,Richards Bay,-28.78,32.04,67.44,93,29,7.63,ZA,1604362411
563,Zambezi,-13.54,23.1,71.1,45,51,2.98,ZM,1604362411
564,Cërrik,41.03,19.98,51.8,93,90,2.24,AL,1604362412
